City_ID,City,Lat,Lng,Max Temp,Humidity,Cloudiness,Wind Speed,Country,Date
0,hawaiian paradise park,19.5933,-154.9731,23.91,94,100,2.06,US,1684557809
1,bethel,41.3712,-73.414,12.74,87,0,2.06,US,1684557810
2,kodiak,57.79,-152.4072,6.73,93,100,6.69,US,1684557810
3,edinburgh of the seven seas,-37.0676,-12.3116,17.22,97,96,8.21,SH,1684557810
4,tadine,-21.55,167.8833,23.14,55,23,5.06,NC,1684557810
5,port-aux-francais,-49.35,70.2167,4.82,68,36,11.27,TF,1684557810
6,blackmans bay,-43.0167,147.3167,12.07,62,61,3.93,AU,1684557811
7,vadso,70.0744,29.7487,12.49,76,75,1.54,NO,1684557811
8,iqaluit,63.7506,-68.5145,-3.15,80,100,1.54,CA,1684557811
9,albany,42.6001,-73.9662,14.46,69,100,0.45,US,1684557279
10,steinbach,50.1667,8.5667,14.21,71,0,4.63,DE,1684557811
11,atafu village,-8.5421,-172.5159,29.11,78,92,6.8,TK,1684557812
12,tiksi,71.6872,128.8694,-0.11,99,100,2.11,RU,1684557812
13,yeraliyev,43.2,51.65,19.8,56,70,0.88,KZ,1684557812
14,lebu,-37.6167,-73.65,8.71,78,30,3.36,CL,1684557812
15,guerrero negro,27.9769,-114.0611,15.77,81,0,4.57,MX,1684557568
16,opuwo,-18.0607,13.84,11.67,46,0,1.56,NA,1684557812
17,oodweyne,9.4092,45.064,25.82,51,0,6.37,SO,1684557812
18,chernyshevskiy,63.0128,112.4714,7.3,80,100,4.63,RU,1684557813
19,port hedland,-20.3167,118.5667,27.03,21,12,11.83,AU,1684557813
20,hermanus,-34.4187,19.2345,9.33,75,15,4.12,ZA,1684557813
21,port hueneme,34.1478,-119.1951,18.31,92,100,4.12,US,1684557597
22,thompson,55.7435,-97.8558,13.09,44,100,2.57,CA,1684557813
23,colonia,50.9333,6.95,12.76,72,91,2.24,DE,1684557661
24,west island,-12.1568,96.8225,25.99,83,100,5.66,CC,1684557813
25,adamstown,-25.066,-130.1015,24.14,73,24,6.1,PN,1684557814
26,bilibino,68.0546,166.4372,8.02,74,100,0.78,RU,1684557814
27,elko,41.0002,-115.5012,19.24,44,2,4.02,US,1684557814
28,college,64.8569,-147.8028,26.18,25,40,4.12,US,1684557814
29,campbellton,48.0075,-66.6727,14.25,67,100,5.43,CA,1684557814
30,grytviken,-54.2811,-36.5092,1.3,79,36,1.57,GS,1684557814
31,invercargill,-46.4,168.35,9.82,88,100,5.96,NZ,1684557814
32,la passe,45.5549,-0.8967,10.13,90,44,4.32,FR,1684557815
33,tralee,52.2704,-9.7026,11.6,95,100,0.74,IE,1684557815
34,puerto ayora,-0.7393,-90.3518,25.86,92,96,2.68,EC,1684557815
35,olonkinbyen,70.9221,-8.7187,2.01,91,86,10.79,SJ,1684557815
36,amherst,41.3978,-82.2224,17.78,89,100,1.54,US,1684557630
37,yellowknife,62.456,-114.3525,9.2,42,75,4.92,CA,1684557646
38,brookings,44.3114,-96.7984,7.28,85,0,0.0,US,1684557815
39,klyuchi,52.2667,79.1667,18.34,29,2,8.66,RU,1684557815
40,tahoua,14.8888,5.2692,30.77,47,90,6.82,NE,1684557816
41,gebeit,21.0667,36.3167,25.71,36,0,3.74,SD,1684557816
42,st. john's,47.5649,-52.7093,6.65,61,75,10.8,CA,1684557600
43,stanley,54.868,-1.6985,8.27,100,33,0.0,GB,1684557816
44,bridgetown,13.1,-59.6167,27.27,78,40,6.69,BB,1684557813
45,shizuishan,39.2333,106.7694,17.24,9,94,6.03,CN,1684557816
46,belyy yar,53.6039,91.3903,15.94,25,0,5.0,RU,1684557816
47,vorgashor,67.5833,63.95,2.51,66,96,2.48,RU,1684557816
48,wailua homesteads,22.0669,-159.378,25.44,79,100,0.45,US,1684557817
49,mont-saint-martin,49.5467,5.7938,12.78,71,73,2.68,FR,1684557817
50,katsuura,35.1333,140.3,17.81,93,99,9.97,JP,1684557817
51,coeur d'alene,47.6777,-116.7805,22.2,63,0,2.06,US,1684557817
52,tura,25.5198,90.2201,29.63,62,0,3.71,IN,1684557817
53,dryden,49.7833,-92.7503,12.16,58,0,3.6,CA,1684557719
54,puerto natales,-51.7236,-72.4875,1.44,92,100,1.21,CL,1684557817
55,kununurra,-15.7667,128.7333,26.99,24,9,6.17,AU,1684557817
56,ust'-ilimsk,58.0006,102.6619,15.67,41,44,3.35,RU,1684557818
57,revda,56.801,59.9303,16.84,29,0,3.27,RU,1684557818
58,muar,2.0442,102.5689,32.02,74,98,4.1,MY,1684557818
59,plouzane,48.3833,-4.6167,10.03,97,9,3.6,FR,1684557818
60,namibe,-15.1961,12.1522,18.51,70,0,2.54,AO,1684557818
61,oliver,49.1831,-119.5524,24.8,60,38,0.51,CA,1684557818
62,anadyr,64.75,177.4833,2.28,93,100,3.0,RU,1684557819
63,bredasdorp,-34.5322,20.0403,10.57,65,17,3.29,ZA,1684557819
64,chonchi,-42.6128,-73.8092,2.84,93,79,1.23,CL,1684557819
65,chonglong,29.7806,104.8522,26.23,67,88,2.81,CN,1684557819
66,i-n-salah,27.1935,2.4607,19.52,36,1,4.29,DZ,1684557819
67,vila do maio,15.1333,-23.2167,23.44,80,10,6.6,CV,1684557819
68,waitangi,-43.9535,-176.5597,15.46,89,100,6.26,NZ,1684557819
69,dickinson,29.4608,-95.0513,26.97,86,0,3.6,US,1684557819
70,tazovsky,67.4667,78.7,1.78,86,100,6.32,RU,1684557820
71,rabo de peixe,37.8,-25.5833,16.73,72,40,5.66,PT,1684557820
72,haiku-pauwela,20.9219,-156.3051,26.2,71,0,4.12,US,1684557704
73,seymour,38.9592,-85.8903,18.4,93,100,2.9,US,1684557555
74,kruisfontein,-34.0033,24.7314,7.71,80,94,2.49,ZA,1684557820
75,avarua,-21.2078,-159.775,23.03,68,68,1.54,CK,1684557820
76,robore,-18.3333,-59.75,22.09,73,8,1.48,BO,1684557820
77,port mathurin,-19.6833,63.4167,25.28,75,9,4.35,MU,1684557821
78,xunchang,28.4543,104.715,24.14,75,100,1.06,CN,1684557821
79,susuman,62.7833,148.1667,4.57,79,100,1.85,RU,1684557821
80,nyurba,63.2842,118.3319,5.88,90,100,5.27,RU,1684557821
81,ketchikan,55.3422,-131.6461,14.26,77,100,2.57,US,1684557821
82,borogontsy,62.6683,131.1683,9.64,36,71,4.67,RU,1684557821
83,soderhamn,61.3037,17.0592,12.2,58,0,2.62,SE,1684557821
84,dera ghazi khan,30.0561,70.6348,39.59,10,5,4.09,PK,1684557822
85,murzuq,25.9155,13.9184,29.06,26,100,3.31,LY,1684557822
86,margaret river,-33.95,115.0667,20.05,32,0,1.12,AU,1684557822
87,tanumah,27.1,44.1333,31.69,16,0,5.6,SA,1684557822
88,longyearbyen,78.2186,15.6401,-0.09,64,75,4.12,SJ,1684557822
89,port elizabeth,-33.918,25.5701,10.73,95,0,2.06,ZA,1684557822
90,valparaiso,-33.0393,-71.6273,10.8,87,0,1.54,CL,1684557822
91,punta arenas,-53.15,-70.9167,4.06,75,75,5.14,CL,1684557822
92,nemuro,43.3236,145.575,6.87,87,39,4.08,JP,1684557822
93,gazipasa,36.2694,32.3179,16.05,88,40,2.06,TR,1684557823
94,alofi,-19.0595,-169.9187,25.94,94,100,3.6,NU,1684557823
95,ushuaia,-54.8,-68.3,2.81,81,40,1.54,AR,1684557685
96,hadibu,12.65,54.0333,30.1,68,22,1.83,YE,1684557823
97,seabra,-12.4186,-41.7703,17.56,90,38,2.21,BR,1684557823
98,ishigaki,24.3448,124.1572,27.07,74,40,4.63,JP,1684557717
99,kpandu,6.9954,0.2931,24.62,92,100,2.36,GH,1684557823
100,hithadhoo,-0.6,73.0833,28.17,74,37,2.87,MV,1684557823
101,mutsu,41.2894,141.2169,14.59,69,34,5.69,JP,1684557824
102,isafjordur,66.0755,-23.124,4.05,88,58,17.01,IS,1684557824
103,papatowai,-46.5619,169.4708,9.74,92,100,7.02,NZ,1684557824
104,labytnangi,66.6572,66.4183,8.39,65,99,2.94,RU,1684557824
105,laguna,38.421,-121.4238,23.0,63,0,3.09,US,1684557824
106,contamana,-7.3333,-75.0167,23.96,94,82,0.88,PE,1684557824
107,keflavik,64.0049,-22.5624,6.95,75,75,14.92,IS,1684557824
108,grand falls-windsor,48.9332,-55.6649,5.84,70,92,6.6,CA,1684557636
109,san antonio de pale,-1.4014,5.6325,26.84,76,100,6.6,GQ,1684557825
110,aasiaat,68.7098,-52.8699,-0.78,97,100,8.6,GL,1684557825
111,hashtrud,37.4779,47.0508,16.44,56,86,1.02,IR,1684557825
112,san mariano,7.5,126.0,29.22,75,91,1.74,PH,1684557825
113,esperanza,19.5847,-70.9849,24.32,90,99,0.89,DO,1684557825
114,yanggu,36.1106,115.7753,31.82,41,33,3.95,CN,1684557825
115,coahuayana de hidalgo,18.7,-103.6583,25.67,80,100,1.6,MX,1684557825
116,east london,-33.0153,27.9116,12.55,68,46,2.54,ZA,1684557825
117,constantia,44.1833,28.65,17.61,76,96,7.47,RO,1684557826
118,ribeira grande,38.5167,-28.7,17.1,80,48,3.58,PT,1684557826
119,chibougamau,49.9168,-74.3659,5.79,100,100,1.54,CA,1684557826
120,kuqa,41.7278,82.9364,23.41,30,100,4.34,CN,1684557826
121,syumsi,57.1111,51.6149,14.58,59,97,2.9,RU,1684557826
122,kingston,17.997,-76.7936,27.53,89,20,3.09,JM,1684557717
123,jamestown,42.097,-79.2353,19.77,77,75,2.57,US,1684557826
124,pontianak,-0.0333,109.3333,31.66,62,40,3.09,ID,1684557690
125,lompoc,34.6391,-120.4579,14.32,88,100,4.02,US,1684557827
126,katabu,-4.9333,122.5167,30.28,58,97,1.11,ID,1684557827
127,hamilton,39.1834,-84.5333,19.95,80,100,2.24,US,1684557695
128,novyy urengoy,66.0833,76.6333,7.29,71,99,5.59,RU,1684557736
129,bel ombre,-4.6167,55.4167,28.91,79,40,4.63,SC,1684557827
130,kabatas,40.75,37.45,14.35,82,94,0.87,TR,1684557827
131,aykhal,66.0,111.5,1.55,88,100,8.61,RU,1684557782
132,oroqen zizhiqi,50.5667,123.7167,15.75,38,100,6.42,CN,1684557827
133,dudinka,69.4058,86.1778,1.46,98,100,7.39,RU,1684557828
134,patong,7.8961,98.2966,29.45,99,99,6.42,TH,1684557828
135,port saint john's,-31.6229,29.5448,13.52,79,4,2.89,ZA,1684557828
136,quellon,-43.1167,-73.6167,5.14,87,20,1.54,CL,1684557828
137,cockburn town,21.4612,-71.1419,26.87,81,54,7.46,TC,1684557828
138,cabo san lucas,22.8909,-109.9124,24.78,63,100,0.89,MX,1684557663
139,markovo,57.3206,107.0881,15.4,29,9,3.16,RU,1684557828
140,rio grande,-32.035,-52.0986,12.75,87,59,2.18,BR,1684557828
141,leava,-14.3,-178.1667,29.41,74,99,1.94,WF,1684557829
142,puerto carreno,6.189,-67.4859,26.28,85,100,1.81,CO,1684557829
143,dhamar,14.5427,44.4051,18.51,42,25,1.21,YE,1684557829
144,skelleftea,64.7507,20.9528,11.2,62,31,1.54,SE,1684557829
145,ojocaliente,21.8775,-102.6754,18.08,57,100,4.62,MX,1684557829
146,weno,7.4515,151.8468,26.97,94,100,4.63,FM,1684557829
147,indramayu,-6.3264,108.32,29.42,67,98,3.95,ID,1684557829
148,holualoa,19.6228,-155.9522,25.91,80,40,4.12,US,1684557830
149,marco island,25.9363,-81.7157,27.22,81,100,0.0,US,1684557830
150,lihue,21.9789,-159.3672,25.77,78,100,0.0,US,1684557830
151,utrik,11.2278,169.8474,27.77,80,23,4.99,MH,1684557830
152,saipan,15.1355,145.701,32.39,100,40,7.2,MP,1684557830
153,whitehorse,60.7161,-135.0538,16.43,40,75,7.72,CA,1684557830
154,humahuaca,-23.2054,-65.3505,9.99,36,98,0.39,AR,1684557830
155,sinop,41.7711,34.8709,10.24,79,76,1.32,TR,1684557830
156,esquel,-42.9,-71.3167,0.47,86,92,1.55,AR,1684557831
157,singleton,-32.5667,151.1833,20.55,36,5,4.92,AU,1684557831
158,waiuku,-37.25,174.75,16.81,88,100,11.08,NZ,1684557831
159,luderitz,-26.6481,15.1594,12.05,53,0,5.1,NA,1684557831
160,egilsstadir,65.2653,-14.3948,8.95,46,40,4.63,IS,1684557831
161,merizo village,13.2658,144.6691,32.31,78,98,5.26,GU,1684557831
162,port alfred,-33.5906,26.891,12.75,70,43,3.25,ZA,1684557831
163,la'ie,21.6477,-157.9253,27.98,79,70,0.97,US,1684557831
164,karratha,-20.7377,116.8463,26.14,25,70,10.38,AU,1684557832
165,mbanza-ngungu,-5.25,14.8667,20.25,98,100,1.3,CD,1684557832
166,udachny,66.4167,112.4,5.25,69,100,8.12,RU,1684557832
167,gwanda,-20.9333,29.0,15.12,38,0,2.19,ZW,1684557832
168,hami,42.8,93.45,23.33,9,99,2.42,CN,1684557560
169,mohr,54.3528,9.7167,10.62,84,71,4.12,DE,1684557832
170,guayaramerin,-10.8368,-65.3614,23.75,83,11,0.95,BO,1684557832
171,argo,37.6333,22.7333,19.32,50,97,1.34,GR,1684557832
172,la ligua,-32.4524,-71.2311,13.77,79,100,0.61,CL,1684557833
173,marahra,27.7333,78.5833,38.62,14,0,3.94,IN,1684557833
174,petawawa,45.9001,-77.3328,10.33,100,100,1.08,CA,1684557833
175,banfora,10.6333,-4.7667,25.8,78,100,1.12,BF,1684557833
176,pekan,3.4836,103.3996,32.06,53,99,0.93,MY,1684557833
177,tsiombe,-25.3,45.4833,20.86,71,8,3.81,MG,1684557833
178,kourou,5.1552,-52.6478,24.03,93,97,3.48,GF,1684557833
179,steinkjer,64.193,11.3851,8.07,73,83,1.34,NO,1684557833
180,bom jesus da lapa,-13.255,-43.4181,20.25,61,0,1.17,BR,1684557834
181,lethem,3.3803,-59.7968,24.19,94,98,3.06,GY,1684557834
182,"laikit, laikit ii (dimembe)",1.4792,124.9735,30.47,66,40,3.09,ID,1684557834
183,serov,59.6033,60.5787,18.78,28,30,2.65,RU,1684557604
184,georgetown,5.4112,100.3354,32.97,62,20,2.57,MY,1684557834
185,desaguadero,-16.5656,-69.0417,6.44,69,3,1.32,PE,1684557834
186,ganghwa-gun,37.7472,126.4856,25.01,61,82,6.27,KR,1684557835
187,bokoro,12.3807,17.0568,32.26,32,91,2.92,TD,1684557835
188,remire-montjoly,4.9167,-52.2667,24.02,94,75,0.0,GF,1684557835
189,novyy urgal,51.0736,132.5642,17.06,44,100,3.89,RU,1684557835
190,urangan,-25.3,152.9,20.01,47,0,3.92,AU,1684557835
191,mount isa,-20.7333,139.5,21.87,18,2,6.17,AU,1684557835
192,alesund,62.4723,6.1549,12.64,74,20,5.66,NO,1684557835
193,omachi,36.5,137.8667,24.86,61,39,2.02,JP,1684557835
194,lexington,37.9887,-84.4777,19.94,74,75,2.57,US,1684557250
195,bandarbeyla,9.4942,50.8122,29.39,72,29,6.67,SO,1684557836
196,saint-pierre,-21.3393,55.4781,26.98,57,0,3.6,RE,1684557836
197,airuk,7.2772,168.8203,28.58,79,66,5.09,MH,1684557836
198,westport,41.1415,-73.3579,15.04,85,0,0.45,US,1684557782
199,pinhao,-25.6956,-51.6597,9.07,69,3,1.25,BR,1684557836
200,cabedelo,-6.9811,-34.8339,24.37,86,40,3.65,BR,1684557837
201,goba,7.0167,39.9833,14.63,62,37,0.12,ET,1684557837
202,bayganin,48.6947,55.8742,18.82,56,38,1.48,KZ,1684557837
203,sorong,-0.8833,131.25,29.75,60,78,6.2,ID,1684557837
204,kharkhorin,47.1975,102.8238,7.13,25,45,8.81,MN,1684557837
205,geraldton,-28.7667,114.6,25.23,22,1,10.29,AU,1684557837
206,petropavlovsk-kamchatsky,53.0452,158.6483,3.33,93,100,4.0,RU,1684557837
207,khandyga,62.6667,135.6,6.93,61,100,3.26,RU,1684557837
208,nantucket,41.2835,-70.0995,13.33,97,100,3.6,US,1684557838
209,galliano,29.4422,-90.2992,26.0,88,0,1.54,US,1684557838
210,alice springs,-23.7,133.8833,16.75,34,0,7.2,AU,1684557540
211,chiang klang,19.2938,100.8617,37.92,31,0,1.2,TH,1684557838
212,sydney mines,46.2367,-60.2177,7.6,80,20,7.72,CA,1684557838
213,talnakh,69.4865,88.3972,1.23,99,100,6.37,RU,1684557839
214,nizhniy odes,63.6445,54.856,8.87,82,100,2.82,RU,1684557839
215,aksu,41.1231,80.2644,24.36,23,74,3.53,CN,1684557839
216,yeed,4.55,43.0333,26.5,65,41,5.91,SO,1684557839
217,le port,-20.9373,55.2919,27.16,81,0,1.3,RE,1684557839
218,midvagur,62.0511,-7.1939,9.46,100,100,5.14,FO,1684557839
219,ghat,24.9647,10.1728,24.0,13,57,2.79,LY,1684557840
220,tidjikja,18.5564,-11.4271,25.61,14,90,4.46,MR,1684557769
221,nieuw amsterdam,5.8833,-55.0833,26.68,89,52,3.58,SR,1684557840
222,natal,-5.795,-35.2094,25.12,100,75,3.09,BR,1684557840
223,qaqortoq,60.7167,-46.0333,-0.4,82,92,3.16,GL,1684557840
224,seven pagodas,12.6264,80.1722,34.03,64,26,6.18,IN,1684557840
225,puerto baquerizo moreno,-0.9,-89.6,25.48,86,75,5.71,EC,1684557840
226,lake monticello,37.9232,-78.3347,19.53,88,57,0.38,US,1684557840
227,yuzhno-kurilsk,44.0306,145.8556,7.57,84,18,3.04,RU,1684557841
228,lahaina,20.8783,-156.6825,27.19,81,49,1.43,US,1684557841
229,ts'alenjikha,42.6044,42.0682,17.96,85,78,1.13,GE,1684557841
230,bolivar,37.6145,-93.4105,13.42,95,81,2.62,US,1684557841
231,gorontalo,0.5412,123.0595,31.05,62,82,3.23,ID,1684557841
232,nguigmi,14.2495,13.1092,30.96,27,48,2.99,NE,1684557841
233,minas de marcona,-15.2119,-75.1103,14.57,88,57,5.04,PE,1684557841
234,sinabang,2.4803,96.3801,28.64,74,98,2.69,ID,1684557841
235,port lincoln,-34.7333,135.8667,15.75,60,36,7.98,AU,1684557842
236,san rafael,-34.6177,-68.3301,9.04,53,22,1.9,AR,1684557842
237,rikaze,29.25,88.8833,14.81,18,4,1.26,CN,1684557842
238,enewetak,11.3474,162.3373,27.67,79,84,6.5,MH,1684557842
239,sitka,57.0531,-135.33,10.94,87,100,3.09,US,1684557843
240,saldanha,-33.0117,17.9442,7.03,83,12,1.51,ZA,1684557843
241,badger,64.8,-147.5333,26.14,19,0,4.12,US,1684557808
242,mahdia,35.5047,11.0622,16.97,82,100,8.19,TN,1684557843
243,hita,33.3167,130.9333,26.58,51,25,2.5,JP,1684557844
244,port alberni,49.2413,-124.8028,19.96,64,72,0.45,CA,1684557844
245,pemangkat,1.1667,108.9667,30.43,68,54,5.4,ID,1684557844
246,cuyo,10.8525,121.0086,26.21,81,100,3.16,PH,1684557844
247,saint-francois,46.4154,3.9054,9.26,93,0,1.03,FR,1684557845
248,codrington,-38.2667,141.9667,12.78,64,84,7.51,AU,1684557845
249,horta,38.5333,-28.6333,16.68,80,59,3.58,PT,1684557845
250,duck lake,52.8168,-106.2344,15.5,47,58,3.35,CA,1684557845
251,prince rupert,54.3161,-130.3201,12.05,88,0,3.6,CA,1684557846
252,marataizes,-21.0433,-40.8244,17.2,83,7,3.72,BR,1684557846
253,malango,-2.9627,119.9001,27.11,64,99,1.77,ID,1684557846
254,tual,-5.6667,132.75,27.06,70,59,4.81,ID,1684557846
255,bhum,18.4667,75.6667,36.62,17,1,5.96,IN,1684557846
256,laurel,39.0993,-76.8483,16.7,84,0,2.57,US,1684557847
257,atlantic beach,30.3344,-81.3987,24.04,85,0,4.63,US,1684557717
258,tibu,8.639,-72.7358,24.38,99,100,0.85,CO,1684557847
259,kapit,2.0167,112.9333,35.4,46,64,0.38,MY,1684557847
260,uturoa,-16.7333,-151.4333,28.0,72,7,1.71,PF,1684557847
261,phang nga,8.4509,98.5298,28.02,57,97,4.1,TH,1684557848
262,amahai,-3.3333,128.9167,27.46,61,98,2.55,ID,1684557848
263,kirakira,-10.4544,161.9205,27.15,86,100,4.56,SB,1684557848
264,chui,-33.6971,-53.4616,16.7,90,99,1.81,UY,1684557848
265,antofagasta,-23.65,-70.4,17.6,79,100,2.69,CL,1684557726
266,moyale,3.5167,39.0584,20.65,81,5,2.96,KE,1684557849
267,ruzayevka,54.0639,44.9509,12.06,94,100,1.95,RU,1684557849
268,ghadamis,30.1337,9.5007,17.16,63,1,8.87,LY,1684557849
269,fort morgan,40.2503,-103.8,14.59,93,0,2.06,US,1684557777
270,senillosa,-39.0,-68.4167,1.88,34,4,3.58,AR,1684557849
271,olyokminsk,60.3736,120.4264,13.87,30,72,5.99,RU,1684557850
272,carbonear,47.7332,-53.2148,6.9,73,100,7.19,CA,1684557646
273,spirovo,57.419,34.9766,9.05,66,98,3.32,RU,1684557850
274,las toscas,-28.3529,-59.258,20.1,67,95,2.05,AR,1684557850
275,afaahiti,-17.75,-149.2833,26.93,80,22,2.86,PF,1684557851
276,sao miguel do tapuio,-5.5036,-41.3233,22.76,82,88,1.48,BR,1684557851
277,newman,37.3138,-121.0208,25.13,59,3,1.57,US,1684557851
278,pochinki,54.6988,44.8668,11.76,95,100,1.94,RU,1684557851
279,la foa,-21.7108,165.8276,22.75,55,19,4.11,NC,1684557851
280,ugoofaaru,5.6667,73.0,28.61,66,31,0.23,MV,1684557852
281,el nido,11.1858,119.3956,26.48,86,100,2.98,PH,1684557852
282,amalapuram,16.5833,82.0167,35.06,52,75,3.58,IN,1684557852
283,flying fish cove,-10.4217,105.6791,28.82,74,75,6.69,CX,1684557852
284,crane,31.3974,-102.3501,20.68,72,100,10.33,US,1684557852
285,iskateley,67.6803,53.1512,4.88,60,6,3.38,RU,1684557853
286,bereznik,62.8551,42.7072,10.99,52,46,2.83,RU,1684557853
287,bloemfontein,-29.1211,26.214,-0.29,86,0,0.0,ZA,1684557616
288,tamanrasset,22.785,5.5228,17.95,10,100,2.57,DZ,1684557853
289,macau,22.2006,113.5461,31.89,84,40,5.14,MO,1684557854
290,luanda,-8.8368,13.2343,25.0,78,40,0.51,AO,1684557780
291,freetown,8.484,-13.2299,25.67,82,100,0.67,SL,1684557854
292,kualakapuas,-3.0091,114.3876,33.61,48,68,1.54,ID,1684557854
293,bousso,10.4795,16.7117,30.01,49,100,3.66,TD,1684557854
294,el granada,37.5027,-122.4694,15.56,88,100,6.69,US,1684557754
295,birobidzhan,48.8,132.95,13.29,79,100,4.37,RU,1684557855
296,barra do corda,-5.5,-45.25,22.28,97,14,1.33,BR,1684557855
297,skovorodino,53.9833,123.9167,20.42,20,23,3.83,RU,1684557855
298,kolonia,50.9333,6.95,12.76,72,91,2.24,DE,1684557855
299,bengkulu,-3.8004,102.2655,29.4,66,30,3.39,ID,1684557856
300,lai chau,22.3997,103.4517,32.66,34,1,1.96,VN,1684557856
301,kyzylorda,44.8528,65.5092,20.01,64,20,3.0,KZ,1684557681
302,guanica,17.9716,-66.908,25.66,62,86,4.35,PR,1684557856
303,carutapera,-1.195,-46.02,24.75,95,98,2.4,BR,1684557856
304,pestovo,58.5938,35.8024,9.7,61,91,3.54,RU,1684557856
305,ilulissat,69.2167,-51.1,-1.99,93,100,9.77,GL,1684557857
306,necochea,-38.5473,-58.7368,10.98,52,4,4.87,AR,1684557812
307,jackson,42.4165,-122.8345,25.93,47,0,4.12,US,1684557857
308,la ronge,55.1001,-105.2842,12.14,54,100,0.51,CA,1684557857
309,oranjemund,-28.55,16.4333,10.3,78,0,2.69,NA,1684557858
310,ilebo,-4.3167,20.5833,21.68,99,100,0.36,CD,1684557858
311,tateyama,34.9833,139.8667,18.25,90,100,8.52,JP,1684557858
312,kidal,18.4411,1.4078,29.52,16,93,5.07,ML,1684557858
313,hasaki,35.7333,140.8333,21.22,91,100,11.72,JP,1684557858
314,paso de los toros,-32.8167,-56.5167,14.65,96,100,2.92,UY,1684557859
315,kwang binh,17.4833,106.6,35.56,50,7,2.11,VN,1684557859
316,isangel,-19.55,169.2667,26.06,73,100,5.14,VU,1684557859
317,santanyi,39.3546,3.1291,15.45,75,92,9.0,ES,1684557859
318,ha dong,20.9725,105.7772,32.01,46,35,1.72,VN,1684557859
319,vilyuchinsk,52.9306,158.4028,4.15,99,100,1.31,RU,1684557860
320,lazaro cardenas,17.9583,-102.2,27.49,75,100,1.74,MX,1684557860
321,vizinga,61.0749,50.1031,12.92,90,100,3.59,RU,1684557860
322,acajutla,13.5928,-89.8275,28.18,78,100,3.19,SV,1684557860
323,zhangye,38.9342,100.4517,18.32,13,86,0.66,CN,1684557861
324,pacocha,-17.5833,-71.3333,18.74,88,93,1.43,PE,1684557861
325,nova vicosa,-17.8919,-39.3719,22.26,74,2,4.8,BR,1684557861
326,kamalpur,24.2,91.8333,33.6,53,12,2.38,IN,1684557861
327,moose jaw,50.4001,-105.5344,14.14,47,26,4.12,CA,1684557795
328,n'dalatando,-9.2978,14.9116,18.19,98,95,0.24,AO,1684557862
329,lae,-6.7221,146.9847,31.37,85,100,1.22,PG,1684557862
330,nanyang,32.9947,112.5328,34.69,30,1,5.97,CN,1684557862
331,chumphon,10.3333,98.8333,29.49,65,82,3.73,TH,1684557862
332,okhotsk,59.3833,143.3,3.79,82,31,6.04,RU,1684557863
333,ha'il,27.5219,41.6907,25.01,29,0,3.09,SA,1684557863
334,iquique,-20.2208,-70.1431,19.02,78,100,0.56,CL,1684557721
335,tolanaro,-25.0319,46.9987,19.04,82,20,1.03,MG,1684557863
336,ust-nera,64.5667,143.2,8.01,40,0,0.47,RU,1684557864
337,dahlonega,34.5326,-83.9849,19.06,92,19,1.32,US,1684557864
338,bereeda,11.8704,51.0579,30.87,68,50,3.41,SO,1684557864
339,catio,11.2833,-15.25,26.02,72,89,1.84,GW,1684557864
340,taytay,14.5678,121.1394,31.7,83,100,1.34,PH,1684557864
341,ridder,50.355,83.5133,18.01,28,1,1.34,KZ,1684557864
342,orsta,62.2029,6.1272,13.1,66,75,0.0,NO,1684557865
343,suva,-18.1416,178.4415,24.71,94,75,2.06,FJ,1684557865
344,sinnar,13.5691,33.5672,33.04,19,0,1.93,SD,1684557865
345,ancud,-41.8697,-73.8203,5.84,84,68,2.25,CL,1684557866
346,carnarvon,-24.8667,113.6333,25.75,31,54,5.8,AU,1684557866
347,rocha,-34.4833,-54.3333,15.45,97,100,1.52,UY,1684557866
348,turpan,42.9333,89.1667,29.28,11,84,3.16,CN,1684557866
349,dadu,26.7329,67.7763,42.03,10,7,4.33,PK,1684557847
350,pitea,65.3172,21.4794,9.05,60,33,3.0,SE,1684557867
351,urumqi,43.801,87.6005,20.53,35,0,2.0,CN,1684557867
352,yeppoon,-23.1333,150.7333,24.88,49,0,3.39,AU,1684557867
353,san juan,-31.5375,-68.5364,14.47,44,88,6.11,AR,1684557691
354,nishinoomote,30.7333,131.0,23.31,78,40,3.6,JP,1684557760
355,bamboo flat,11.7,92.7167,30.92,67,50,5.01,IN,1684557868
356,rurrenabaque,-14.4413,-67.5278,22.52,97,20,0.82,BO,1684557869
357,adra,36.7496,-3.0206,15.82,74,4,0.66,ES,1684557869
358,ulladulla,-35.35,150.4667,15.43,43,67,4.71,AU,1684557869
359,sao miguel do araguaia,-13.275,-50.1628,20.93,53,36,1.51,BR,1684557869
360,fenoarivo atsinanana,-17.3667,49.4167,24.05,79,10,1.75,MG,1684557869
361,pangody,65.85,74.4859,6.75,76,96,5.63,RU,1684557870
362,nova sintra,14.8667,-24.7167,20.41,79,18,5.57,CV,1684557870
363,happy valley-goose bay,53.3168,-60.3315,9.17,61,100,6.69,CA,1684557870
364,gandorhun,7.5,-11.8333,23.96,89,100,0.49,SL,1684557870
365,novodvinsk,64.4165,40.8122,8.92,56,15,0.2,RU,1684557871
366,satoraljaujhely,48.4,21.6667,14.03,88,14,3.26,HU,1684557871
367,urengoy,65.9667,78.3667,10.08,67,62,5.53,RU,1684557871
368,acapulco de juarez,16.8634,-99.8901,28.9,79,75,4.63,MX,1684557805
369,deulgaon raja,20.0167,76.0333,36.23,20,0,6.85,IN,1684557871
370,talisayan,6.9872,121.9272,28.95,79,75,2.06,PH,1684557871
371,pacasmayo,-7.4006,-79.5714,22.63,82,67,5.59,PE,1684557872
372,holmen,43.9633,-91.2562,9.88,76,0,2.57,US,1684557872
373,port isabel,26.0734,-97.2086,26.68,86,0,3.6,US,1684557842
374,rovaniemi,66.5,25.7167,8.67,76,0,4.12,FI,1684557872
375,kirensk,57.7853,108.1119,16.22,26,44,2.94,RU,1684557872
376,slave lake,55.2834,-114.769,14.99,67,100,2.06,CA,1684557736
377,bayport,40.7384,-73.0507,15.16,86,75,3.6,US,1684557872
378,chrysoupolis,40.9856,24.6939,20.49,82,20,0.0,GR,1684557873
379,cidreira,-30.1811,-50.2056,16.92,92,9,2.15,BR,1684557873
380,kimbe,-5.5502,150.1429,26.69,89,100,1.61,PG,1684557873
381,borba,-4.3878,-59.5939,24.44,92,75,0.81,BR,1684557873
382,deschutes river woods,43.9915,-121.3584,18.01,66,0,2.57,US,1684557873
383,atbasar,51.8,68.3333,16.13,33,99,9.09,KZ,1684557873
384,bubaque,11.2833,-15.8333,26.41,70,94,3.97,GW,1684557874
385,arvayheer,46.2639,102.775,6.09,15,1,7.92,MN,1684557874
386,nadym,65.5333,72.5167,8.62,74,84,5.85,RU,1684557874
387,santiago de chuco,-8.15,-78.1833,11.33,87,60,0.6,PE,1684557874
388,ixtapa,20.7,-105.2,26.79,78,100,1.03,MX,1684557874
389,callao,-12.0667,-77.15,22.16,73,100,5.14,PE,1684557588
390,manokwari,-0.8667,134.0833,28.47,73,55,2.71,ID,1684557874
391,margate,51.3813,1.3862,11.61,88,26,4.02,GB,1684557874
392,benjamin constant,-4.3831,-70.0311,24.07,98,95,0.82,BR,1684557875
393,fort bragg,35.139,-79.006,18.08,97,100,1.54,US,1684557875
394,taroa,8.7058,171.2275,28.27,79,54,5.48,MH,1684557875
395,hilvan,37.5869,38.9551,19.49,55,20,2.57,TR,1684557875
396,puerto penasco,31.3167,-113.5333,22.73,76,2,0.45,MX,1684557875
397,ta`u,-14.2336,-169.5144,28.42,81,92,6.82,AS,1684557875
398,salinopolis,-0.6136,-47.3561,26.22,86,92,3.71,BR,1684557875
399,derinkuyu,38.3751,34.7342,9.31,69,58,1.36,TR,1684557876
400,pantai remis,4.4557,100.6288,33.01,68,30,3.1,MY,1684557876
401,rongelap,11.1635,166.8941,27.69,80,28,5.18,MH,1684557876
402,lib,8.3122,167.3766,27.97,82,61,5.07,MH,1684557876
403,misratah,32.3754,15.0925,22.64,60,40,6.24,LY,1684557876
404,deqing,30.5448,119.9599,27.75,59,100,1.86,CN,1684557876
405,nyala,12.05,24.8833,27.78,16,12,3.74,SD,1684557876
406,coquimbo,-29.9533,-71.3436,12.85,100,100,2.06,CL,1684557877
407,dampit,-8.2116,112.7493,29.09,55,24,2.49,ID,1684557877
408,hotan,37.0997,79.9269,27.19,16,71,3.84,CN,1684557877
409,sasvad,18.3333,74.0333,33.14,22,1,4.26,IN,1684557877
410,central city,37.2939,-87.1233,20.57,92,98,1.72,US,1684557877
411,shaping,22.7545,112.9565,32.85,55,35,4.31,CN,1684557877
412,dunedin,-45.8742,170.5036,11.0,92,100,6.69,NZ,1684557832
413,vila velha,-20.3297,-40.2925,19.41,84,0,2.57,BR,1684557878
414,grand-bourg,15.8835,-61.3148,24.97,76,12,8.02,GP,1684557878
415,laojunmiao,39.8333,97.7333,10.64,13,100,7.92,CN,1684557878
416,fortuna,40.5982,-124.1573,13.29,95,100,2.57,US,1684557878
417,lhokseumawe,5.1801,97.1507,30.36,69,89,4.23,ID,1684557878
418,hovd,48.0056,91.6419,8.51,22,6,4.61,MN,1684557878
419,hirara,24.8,125.2833,26.15,69,75,3.09,JP,1684557878
420,naha,26.2125,127.6811,26.38,67,75,6.17,JP,1684557879
421,pisco,-13.7,-76.2167,19.03,82,33,2.57,PE,1684557879
422,baissa,7.2333,10.6333,23.53,93,100,0.52,NG,1684557879
423,linfen,36.0889,111.5189,31.78,27,0,3.93,CN,1684557879
424,manavalakurichi,8.1333,77.3,31.16,66,28,5.22,IN,1684557879
425,vikulovo,56.8167,70.6107,18.8,37,32,3.46,RU,1684557879
426,kudat,6.8837,116.8477,29.96,74,40,4.12,MY,1684557879
427,mawu,29.5923,107.3139,22.7,77,99,0.28,CN,1684557879
428,waqqas,32.5427,35.6053,19.0,68,43,3.29,JO,1684557880
429,emerald,-23.5333,148.1667,24.08,25,0,2.17,AU,1684557880
430,jales,-20.2689,-50.5458,14.52,59,23,2.66,BR,1684557880
431,chilaw,7.5758,79.7953,30.01,73,26,6.65,LK,1684557880
432,pingliang,35.5392,106.6861,21.12,31,6,5.84,CN,1684557880
433,luancheng,37.8792,114.6517,25.09,20,59,2.11,CN,1684557880
434,fristad,65.2,16.7167,10.06,62,77,2.52,SE,1684557880
435,nouadhibou,20.931,-17.0347,18.99,68,81,9.26,MR,1684557881
436,san rafael del yuma,18.4299,-68.6739,26.76,89,99,1.93,DO,1684557881
437,sabha,27.0377,14.4283,27.87,23,100,6.67,LY,1684557881
438,sur,22.5667,59.5289,34.48,47,0,1.18,OM,1684557881
439,sevastopol,44.6,33.5333,16.11,55,91,3.74,UA,1684557881
440,enriquillo,17.9,-71.2333,25.74,86,8,4.0,DO,1684557881
441,boise,43.6135,-116.2035,24.45,52,0,3.09,US,1684557760
442,flin flon,54.7682,-101.865,12.5,50,2,3.67,CA,1684557882
443,axim,4.8699,-2.2405,25.72,89,100,2.99,GH,1684557882
444,orkney,-26.9802,26.6727,7.38,57,43,0.47,ZA,1684557882
445,baotou,40.6522,109.8222,15.73,8,80,6.89,CN,1684557882
446,tongren,27.7172,109.1853,24.35,88,100,0.95,CN,1684557882
447,dalnerechensk,45.9339,133.7225,15.99,54,100,4.09,RU,1684557882
448,malabar,-33.9667,151.25,20.39,43,0,5.14,AU,1684557882
449,chegdomyn,51.1167,133.0167,16.62,46,100,3.28,RU,1684557883
450,narvik,68.4384,17.4272,8.67,79,100,3.23,NO,1684557883
451,gangtok,27.3333,88.6167,20.56,60,74,2.02,IN,1684557883
452,espinho,41.0076,-8.6413,17.84,47,100,3.46,PT,1684557813
453,lata,40.1629,-8.3327,16.71,47,100,3.36,PT,1684557883
454,san patricio,28.017,-97.5169,26.59,92,93,3.13,US,1684557883
455,akrehamn,59.2667,5.1833,9.14,93,100,2.57,NO,1684557883
456,pandan,14.0453,124.1694,29.45,74,100,0.95,PH,1684557883
457,vernon,50.2581,-119.2691,22.34,48,11,1.09,CA,1684557624
458,trinidad,-14.8333,-64.9,23.36,87,4,1.24,BO,1684557884
459,nizhneudinsk,54.9076,99.0276,14.98,32,98,2.7,RU,1684557884
460,magdagachi,53.45,125.8,20.14,19,33,3.05,RU,1684557884
461,paola,39.3599,16.0396,19.62,77,100,7.79,IT,1684557884
462,valday,57.9747,33.2525,9.89,61,4,2.6,RU,1684557884
463,ridgecrest,35.6225,-117.6709,29.45,22,40,4.12,US,1684557586
464,bela,25.9333,81.9833,41.3,12,0,4.75,IN,1684557884
465,stupino,54.9008,38.0708,10.16,68,13,4.6,RU,1684557885
466,bakanas,44.8081,76.2772,22.96,38,76,2.11,KZ,1684557885
467,phalodi,27.1333,72.3667,39.37,16,0,7.25,IN,1684557885
468,vredendal,-31.6683,18.5012,8.88,65,41,0.58,ZA,1684557885
469,lajere,11.9797,11.4443,29.29,49,73,4.85,NG,1684557885
470,mawlaik,23.6333,94.4167,37.81,28,0,1.05,MM,1684557885
471,el bolson,-41.9667,-71.5167,1.51,89,57,1.46,AR,1684557886
472,lubango,-14.9172,13.4925,13.25,43,1,0.91,AO,1684557886
473,inderbor,48.55,51.7833,16.97,53,3,6.94,KZ,1684557886
474,taro,-8.3862,115.28,25.0,64,96,2.41,ID,1684557886
475,xianyang,34.3378,108.7026,29.58,51,20,4.0,CN,1684557886
476,tokar,18.4254,37.729,28.94,66,8,5.9,SD,1684557886
477,saudarkrokur,65.7461,-19.6394,5.13,73,31,12.61,IS,1684557886
478,zelenoborskiy,66.845,32.3622,7.42,77,75,1.44,RU,1684557886
479,woolgoolga,-30.1106,153.2007,20.58,41,0,0.96,AU,1684557887
480,macusani,-14.0833,-70.4333,1.15,89,23,0.72,PE,1684557887
481,mikuni,36.2171,136.1519,19.95,79,26,5.71,JP,1684557887
482,lycksele,64.5954,18.6735,8.93,76,75,0.0,SE,1684557887
483,qamdo,31.1667,97.2333,11.55,32,48,3.09,CN,1684557887
484,klaksvik,62.2266,-6.589,9.51,91,99,5.1,FO,1684557887
485,abu al matamir,30.9102,30.1744,16.27,66,0,2.37,EG,1684557887
486,kerouane,9.2667,-9.0167,21.28,96,100,0.55,GN,1684557887
487,lincheng,19.9078,109.6858,34.17,53,3,1.55,CN,1684557888
488,sechura,-5.5569,-80.8222,24.06,73,78,6.01,PE,1684557888
489,mhamid,29.82,-5.72,17.86,31,0,3.99,MA,1684557888
490,villa regina,-39.1,-67.0667,6.52,26,1,4.19,AR,1684557888
491,gandajika,-6.75,23.95,20.9,82,100,0.62,CD,1684557888
492,labrador city,52.9463,-66.9114,2.95,93,100,2.57,CA,1684557888
493,longboat key,27.4125,-82.659,27.22,58,40,3.6,US,1684557888
494,taltal,-25.4,-70.4833,16.23,85,100,0.81,CL,1684557620
495,bol,13.4586,14.7147,28.52,67,89,5.0,TD,1684557889
496,smithers,54.7804,-127.1743,19.18,39,0,3.09,CA,1684557639
497,saint-philippe,-21.3585,55.7679,25.77,72,0,0.49,RE,1684557889
498,hammerfest,70.6634,23.6821,8.25,76,100,3.09,NO,1684557889
499,attapeu,14.8,106.8333,37.69,39,76,1.58,LA,1684557889
500,angostura,25.3667,-108.1833,24.11,53,100,1.39,MX,1684557889
501,navoiy,40.0844,65.3792,25.71,24,6,1.03,UZ,1684557889
502,severo-yeniseyskiy,60.3725,93.0408,10.6,83,99,1.93,RU,1684557890
503,ayorou,14.7308,0.9174,30.83,26,43,4.45,NE,1684557890
504,udi,6.3144,7.4258,21.98,97,100,1.47,NG,1684557890
505,new norfolk,-42.7826,147.0587,12.73,62,92,2.24,AU,1684557890
506,kushiro,42.975,144.3747,13.53,71,75,6.17,JP,1684557798
507,garh maharaja,30.8339,71.9053,38.86,14,2,3.55,PK,1684557890
508,cromwell,41.5951,-72.6454,13.34,83,0,2.06,US,1684557891
509,port shepstone,-30.7414,30.455,14.31,74,18,3.26,ZA,1684557891
510,tucumcari,35.1717,-103.725,12.91,82,100,5.14,US,1684557891
511,papao,-17.75,-149.55,27.82,76,24,2.77,PF,1684557891
512,marvejols,44.5538,3.2914,8.84,95,97,2.17,FR,1684557891
513,fort mcmurray,56.7268,-111.381,12.73,71,100,2.57,CA,1684557891
514,kenai,60.5544,-151.2583,14.05,51,0,7.2,US,1684557793
515,chapaev,50.2,51.1667,15.72,60,6,4.35,KZ,1684557892
516,magadan,59.5667,150.8,4.74,94,100,8.51,RU,1684557892
517,al artawiyah,26.5053,45.3444,31.08,23,23,9.75,SA,1684557892
518,massawa,15.6097,39.45,31.2,68,2,4.01,ER,1684557892
519,bani suwayf,29.0744,31.0979,19.82,56,0,3.83,EG,1684557892
520,radviliskis,55.8167,23.5333,10.03,66,0,1.03,LT,1684557892
521,sosnovo-ozerskoye,52.5249,111.5418,17.41,23,74,3.73,RU,1684557892
522,basco,20.4487,121.9702,28.42,73,0,0.59,PH,1684557893
523,oleksandriya,48.6696,33.1159,18.3,64,72,4.35,UA,1684557893
524,cabugao,17.7931,120.4578,33.92,63,51,3.41,PH,1684557893
525,mamuju,-2.6748,118.8885,30.26,66,51,2.35,ID,1684557893
526,toliara,-23.35,43.6667,22.73,66,1,1.83,MG,1684557893
527,presidente epitacio,-21.7633,-52.1156,14.65,79,78,1.64,BR,1684557893
528,tacuarembo,-31.7333,-55.9833,15.95,93,100,2.14,UY,1684557893
529,pangoa,-12.1167,-73.0,20.01,98,7,1.19,PE,1684557894
530,yaren,-0.5472,166.916,28.78,75,13,4.2,NR,1684557894
531,polyarnyy,69.1989,33.4478,10.11,77,80,5.28,RU,1684557894
532,tocopilla,-22.092,-70.1979,18.17,77,100,2.93,CL,1684557894
533,bikenibeu village,1.3673,173.1241,30.98,74,40,5.14,KI,1684557894
534,beira,-19.8436,34.8389,22.91,92,44,0.48,MZ,1684557894
535,labasa,-16.4167,179.3833,27.52,85,79,1.05,FJ,1684557894
536,arfoud,31.4348,-4.2375,13.39,51,0,0.99,MA,1684557895
537,lukolela,-1.0605,17.1821,21.68,98,100,1.05,CD,1684557895
538,georgiyevka,43.0369,74.7114,21.02,52,20,6.0,KZ,1684557895
539,armacao de buzios,-22.7469,-41.8817,15.03,77,0,2.43,BR,1684557895
540,kone,-21.0595,164.8658,24.17,52,15,3.59,NC,1684557895
541,itamaraca,-7.7478,-34.8256,24.03,90,47,3.4,BR,1684557895
542,noyabrsk,63.1994,75.4507,17.86,31,11,6.98,RU,1684557895
543,anna regina,7.2644,-58.5077,25.57,90,98,3.76,GY,1684557896
544,portland,45.5234,-122.6762,23.99,60,40,2.57,US,1684557682
545,mulanje,-16.0316,35.5,20.79,63,4,1.56,MW,1684557896
546,mabaruma,8.2,-59.7833,23.38,99,99,1.19,GY,1684557896
547,debesy,57.6529,53.8049,14.94,51,57,3.53,RU,1684557896
548,praia da vitoria,38.7333,-27.0667,17.14,88,75,6.03,PT,1684557896
